{"items":[{"title":"トリックアート×謎解きゲーム「美術館に仕掛けられた謎に挑め！」","startDate":"4月1日(月)","endDate":"11月30日(土)","image":"https://ms-cache.walkerplus.com/walkertouch/wtd/event/59/l/345559.jpg","pref":"東京都","city":"港区","location":"東京トリックアート迷宮館"},{"title":"東京金魚ワンダーランド2019","startDate":"7月12日(金)","endDate":"10月31日(木)","image":"https://ms-cache.walkerplus.com/walkertouch/wtd/event/55/l/144855.jpg","pref":"東京都","city":"墨田区","location":"すみだ水族館"},{"title":"PIXARのひみつ展 いのちを生みだすサイエンス","startDate":"4月13日(土)","endDate":"9月16日(月)","image":"https://ms-cache.walkerplus.com/walkertouch/wtd/event/98/l/337498.jpg","pref":"東京都","city":"港区","location":"六本木ヒルズ展望台 東京シティビュー"},{"title":"NAKED 花火アクアリウム","startDate":"7月13日(土)","endDate":"9月29日(日)","image":"https://ms-cache.walkerplus.com/walkertouch/wtd/event/36/l/190836_1.jpg","pref":"東京都","city":"港区","location":"マクセル アクアパーク品川"},{"title":"LAND Meat Center","startDate":"4月26日(金)","endDate":"9月30日(月)","image":"https://ms-cache.walkerplus.com/walkertouch/wtd/event/76/l/78276_1.jpg","pref":"東京都","city":"新宿区","location":"ルミネ新宿"},{"title":"ROOF TOP ORCHESTRA -音を奏でる庭園-","startDate":"8月6日(火)","endDate":"10月31日(木)","image":"https://ms-cache.walkerplus.com/walkertouch/wtd/event/02/l/357902.jpg","pref":"東京都","city":"中央区","location":"GINZA SIX"},{"title":"サンシャイン60展望台 天空のジップライン～大都会の空を疾走しよう！～","startDate":"7月24日(水)","endDate":"9月23日(祝)","image":"https://ms-cache.walkerplus.com/walkertouch/wtd/event/71/l/356771.jpg","pref":"東京都","city":"豊島区","location":"SKY CIRCUS サンシャイン60展望台"},{"title":"恐竜博2019","startDate":"7月13日(土)","endDate":"10月14日(月)","image":"https://ms-cache.walkerplus.com/walkertouch/wtd/event/36/l/345736.jpg","pref":"東京都","city":"台東区","location":"国立科学博物館"},{"title":"ねこがかわいいだけ展(東京)","startDate":"8月15日(木)","endDate":"9月10日(火)","image":"https://ms-cache.walkerplus.com/walkertouch/wtd/event/35/l/351035.jpg","pref":"東京都","city":"渋谷区","location":"渋谷ヒカリエ"},{"title":"企画展「マンモス展」-その『生命』は蘇るのか-","startDate":"6月7日(金)","endDate":"11月4日(月)","image":"https://ms-cache.walkerplus.com/walkertouch/wtd/event/05/l/312905.jpg","pref":"東京都","city":"江東区","location":"日本科学未来館"}]}